[
    {
        "oblast": "Республика Хакасия",
        "region": "",
        "city": "Абаза",
        "lat": "52.651657",
        "lon": "90.088572",
        "timezone_sign": "plus",
        "timezone_value": "4",
        "population": "15335"
    },
    {
        "oblast": "Республика Хакасия",
        "region": "",
        "city": "Абакан",
        "lat": "53.722356",
        "lon": "91.443699",
        "timezone_sign": "plus",
        "timezone_value": "4",
        "population": "186797"
    },
    {
        "oblast": "Оренбургская область",
        "region": "Абдулинский район",
        "city": "Абдулино",
        "lat": "53.689789",
        "lon": "53.653709",
        "timezone_sign": "plus",
        "timezone_value": "2",
        "population": "18768"
    },
    {
        "oblast": "Краснодарский край",
        "region": "Абинский район",
        "city": "Абинск",
        "lat": "44.867924",
        "lon": "38.161754",
        "timezone_sign": "plus",
        "timezone_value": "0",
        "population": "39058"
    },
    {
        "oblast": "Республика Башкортостан",
        "region": "Городской округ Агидель",
        "city": "Агидель",
        "lat": "55.904071",
        "lon": "53.926605",
        "timezone_sign": "plus",
        "timezone_value": "2",
        "population": "14601"
    },
    {
        "oblast": "Республика Татарстан",
        "region": "Агрызский район",
        "city": "Агрыз",
        "lat": "56.519695",
        "lon": "52.992238",
        "timezone_sign": "plus",
        "timezone_value": "0",
        "population": "19794"
    },
    {
        "oblast": "Республика Адыгея",
        "region": "Городской округ Адыгейск",
        "city": "Адыгейск",
        "lat": "44.878367",
        "lon": "39.190235",
        "timezone_sign": "plus",
        "timezone_value": "0",
        "population": "12721"
    },
    {
        "oblast": "Республика Татарстан",
        "region": "Азнакаевский район",
        "city": "Азнакаево",
        "lat": "54.860094",
        "lon": "53.072736",
        "timezone_sign": "plus",
        "timezone_value": "0",
        "population": "34587"
    },
    {
        "oblast": "Ростовская область",
        "region": "Азовский район",
        "city": "Азов",
        "lat": "47.112129",
        "lon": "39.423267",
        "timezone_sign": "plus",
        "timezone_value": "0",
        "population": "82937"
    },
    {
        "oblast": "Республика Тыва (Тува)",
        "region": "Городской округ Ак-Довурак",
        "city": "Ак-Довурак",
        "lat": "51.178493",
        "lon": "90.598474",
        "timezone_sign": "plus",
        "timezone_value": "4",
        "population": "13580"
    },
    {
        "oblast": "Ростовская область",
        "region": "Аксайский район",
        "city": "Аксай",
        "lat": "47.266918",
        "lon": "39.86914",
        "timezone_sign": "plus",
        "timezone_value": "0",
        "population": "44828"
    },
    {
        "oblast": "Республика Северная Осетия — Алания",
        "region": "Алагирский район",
        "city": "Алагир",
        "lat": "43.042721",
        "lon": "44.222568",
        "timezone_sign": "plus",
        "timezone_value": "0",
        "population": "19737"
    },
    {
        "oblast": "Свердловская область",
        "region": "Городской округ Алапаевск",
        "city": "Алапаевск",
        "lat": "57.851464",
        "lon": "61.671741",
        "timezone_sign": "plus",
        "timezone_value": "2",
        "population": "37131"
    },
    {
        "oblast": "Чувашская Республика",
        "region": "Городской округ Алатырь",
        "city": "Алатырь",
        "lat": "54.839805",
        "lon": "46.572177",
        "timezone_sign": "plus",
        "timezone_value": "0",
        "population": "35298"
    },
    {
        "oblast": "Республика Саха (Якутия)",
        "region": "Алданский район",
        "city": "Алдан",
        "lat": "58.609826",
        "lon": "125.383901",
        "timezone_sign": "plus",
        "timezone_value": "6",
        "population": "20595"
    },
    {
        "oblast": "Алтайский край",
        "region": "Городской округ Алейск",
        "city": "Алейск",
        "lat": "52.492167",
        "lon": "82.77943",
        "timezone_sign": "plus",
        "timezone_value": "4",
        "population": "29249"
    },
    {
        "oblast": "Владимирская область",
        "region": "Александровский район",
        "city": "Александров",
        "lat": "56.396759",
        "lon": "38.72419",
        "timezone_sign": "plus",
        "timezone_value": "0",
        "population": "59036"
    },
    {
        "oblast": "Пермский край",
        "region": "Александровский район",
        "city": "Александровск",
        "lat": "59.159259",
        "lon": "57.583548",
        "timezone_sign": "plus",
        "timezone_value": "2",
        "population": "12222"
    },
    {
        "oblast": "Белгородская область",
        "region": "Алексеевский район",
        "city": "Алексеевка",
        "lat": "50.629961",
        "lon": "38.688095",
        "timezone_sign": "plus",
        "timezone_value": "0",
        "population": "38179"
    },
    {
        "oblast": "Тульская область",
        "region": "Алексинский район",
        "city": "Алексин",
        "lat": "54.503114",
        "lon": "37.06739",
        "timezone_sign": "plus",
        "timezone_value": "0",
        "population": "57892"
    },
    {
        "oblast": "Республика Крым",
        "region": "Городской округ Алушта",
        "city": "Алушта",
        "lat": "44.676379",
        "lon": "34.410048",
        "timezone_sign": "plus",
        "timezone_value": "0",
        "population": "29963"
    },
    {
        "oblast": "Республика Татарстан",
        "region": "Альметьевский район",
        "city": "Альметьевск",
        "lat": "54.900295",
        "lon": "52.289817",
        "timezone_sign": "plus",
        "timezone_value": "0",
        "population": "157310"
    },
    {
        "oblast": "Хабаровский край",
        "region": "Амурский район",
        "city": "Амурск",
        "lat": "50.234507",
        "lon": "136.879156",
        "timezone_sign": "plus",
        "timezone_value": "7",
        "population": "38913"
    },
    {
        "oblast": "Чукотский автономный округ",
        "region": "Анадырский район",
        "city": "Анадырь",
        "lat": "64.731434",
        "lon": "177.501522",
        "timezone_sign": "plus",
        "timezone_value": "9",
        "population": "15819"
    },
    {
        "oblast": "Краснодарский край",
        "region": "Городской округ Анапа",
        "city": "Анапа",
        "lat": "44.89502",
        "lon": "37.331039",
        "timezone_sign": "plus",
        "timezone_value": "0",
        "population": "88879"
    },
    {
        "oblast": "Иркутская область",
        "region": "Ангарский городской округ",
        "city": "Ангарск",
        "lat": "52.545727",
        "lon": "103.892283",
        "timezone_sign": "plus",
        "timezone_value": "5",
        "population": "224630"
    },
    {
        "oblast": "Кемеровская область",
        "region": "Юргинский городской округ",
        "city": "Анжеро-Судженск",
        "lat": "56.080191",
        "lon": "86.022555",
        "timezone_sign": "plus",
        "timezone_value": "4",
        "population": "69253"
    },
    {
        "oblast": "Мурманская область",
        "region": "Городской округ Апатиты",
        "city": "Апатиты",
        "lat": "67.568302",
        "lon": "33.395329",
        "timezone_sign": "plus",
        "timezone_value": "0",
        "population": "55201"
    },
    {
        "oblast": "Московская область",
        "region": "Наро-Фоминский район",
        "city": "Апрелевка",
        "lat": "55.545166",
        "lon": "37.07322",
        "timezone_sign": "plus",
        "timezone_value": "0",
        "population": "30669"
    },
    {
        "oblast": "Краснодарский край",
        "region": "Апшеронский район",
        "city": "Апшеронск",
        "lat": "44.458432",
        "lon": "39.730078",
        "timezone_sign": "plus",
        "timezone_value": "0",
        "population": "39488"
    },
    {
        "oblast": "Чеченская Республика",
        "region": "Городской округ Аргун",
        "city": "Аргун",
        "lat": "43.291711",
        "lon": "45.872371",
        "timezone_sign": "plus",
        "timezone_value": "0",
        "population": "39275"
    },
    {
        "oblast": "Республика Северная Осетия — Алания",
        "region": "Ардонский район",
        "city": "Ардон",
        "lat": "43.173481",
        "lon": "44.297852",
        "timezone_sign": "plus",
        "timezone_value": "0",
        "population": "19298"
    },
    {
        "oblast": "Нижегородская область",
        "region": "Городской округ Арзамас",
        "city": "Арзамас",
        "lat": "55.40321",
        "lon": "43.83614",
        "timezone_sign": "plus",
        "timezone_value": "0",
        "population": "103979"
    },
    {
        "oblast": "Саратовская область",
        "region": "Аркадакский район",
        "city": "Аркадак",
        "lat": "51.938814",
        "lon": "43.499849",
        "timezone_sign": "plus",
        "timezone_value": "1",
        "population": "11895"
    },
    {
        "oblast": "Краснодарский край",
        "region": "Городской округ Армавир",
        "city": "Армавир",
        "lat": "44.996361",
        "lon": "41.120628",
        "timezone_sign": "plus",
        "timezone_value": "0",
        "population": "188960"
    },
    {
        "oblast": "Республика Крым",
        "region": "Городской округ Армянск",
        "city": "Армянск",
        "lat": "46.107222",
        "lon": "33.693333",
        "timezone_sign": "plus",
        "timezone_value": "0",
        "population": "21552"
    },
    {
        "oblast": "Приморский край",
        "region": "Арсеньевский городской округ",
        "city": "Арсеньев",
        "lat": "44.162116",
        "lon": "133.269708",
        "timezone_sign": "plus",
        "timezone_value": "7",
        "population": "52251"
    },
    {
        "oblast": "Республика Татарстан",
        "region": "Арский район",
        "city": "Арск",
        "lat": "56.091932",
        "lon": "49.873525",
        "timezone_sign": "plus",
        "timezone_value": "0",
        "population": "20523"
    },
    {
        "oblast": "Приморский край",
        "region": "Артёмовский городской округ",
        "city": "Артём",
        "lat": "43.351126",
        "lon": "132.159031",
        "timezone_sign": "plus",
        "timezone_value": "7",
        "population": "106460"
    },
    {
        "oblast": "Архангельская область",
        "region": "Городской округ Архангельск",
        "city": "Архангельск",
        "lat": "64.536926",
        "lon": "40.565571",
        "timezone_sign": "plus",
        "timezone_value": "0",
        "population": "346979"
    },
    {
        "oblast": "Свердловская область",
        "region": "Асбестовский городской округ",
        "city": "Асбест",
        "lat": "57.009094",
        "lon": "61.452409",
        "timezone_sign": "plus",
        "timezone_value": "2",
        "population": "62908"
    },
    {
        "oblast": "Томская область",
        "region": "Асиновский район",
        "city": "Асино",
        "lat": "56.990199",
        "lon": "86.176041",
        "timezone_sign": "plus",
        "timezone_value": "4",
        "population": "24141"
    },
    {
        "oblast": "Астраханская область",
        "region": "Городской округ Астрахань",
        "city": "Астрахань",
        "lat": "46.354889",
        "lon": "48.052719",
        "timezone_sign": "plus",
        "timezone_value": "1",
        "population": "529793"
    },
    {
        "oblast": "Саратовская область",
        "region": "Аткарский район",
        "city": "Аткарск",
        "lat": "51.873621",
        "lon": "45.000323",
        "timezone_sign": "plus",
        "timezone_value": "1",
        "population": "25140"
    },
    {
        "oblast": "Астраханская область",
        "region": "Ахтубинский район",
        "city": "Ахтубинск",
        "lat": "48.292186",
        "lon": "46.176981",
        "timezone_sign": "plus",
        "timezone_value": "1",
        "population": "37883"
    },
    {
        "oblast": "Красноярский край",
        "region": "Ачинский район",
        "city": "Ачинск",
        "lat": "56.269496",
        "lon": "90.495231",
        "timezone_sign": "plus",
        "timezone_value": "4",
        "population": "105259"
    },
    {
        "oblast": "Челябинская область",
        "region": "Ашинский район",
        "city": "Аша",
        "lat": "54.990279",
        "lon": "57.280225",
        "timezone_sign": "plus",
        "timezone_value": "2",
        "population": "29274"
    },
    {
        "oblast": "Вологодская область",
        "region": "Бабаевский район",
        "city": "Бабаево",
        "lat": "59.389227",
        "lon": "35.937759",
        "timezone_sign": "plus",
        "timezone_value": "0",
        "population": "11493"
    },
    {
        "oblast": "Республика Татарстан",
        "region": "Бавлинский район",
        "city": "Бавлы",
        "lat": "54.406843",
        "lon": "53.24905",
        "timezone_sign": "plus",
        "timezone_value": "0",
        "population": "22145"
    },
    {
        "oblast": "Иркутская область",
        "region": "Слюдянский район",
        "city": "Байкальск",
        "lat": "51.520551",
        "lon": "104.150503",
        "timezone_sign": "plus",
        "timezone_value": "5",
        "population": "12534"
    },
    {
        "oblast": "Республика Башкортостан",
        "region": "Баймакский район",
        "city": "Баймак",
        "lat": "52.591257",
        "lon": "58.311199",
        "timezone_sign": "plus",
        "timezone_value": "2",
        "population": "17254"
    },
    {
        "oblast": "Челябинская область",
        "region": "Саткинский район",
        "city": "Бакал",
        "lat": "54.941198",
        "lon": "58.806861",
        "timezone_sign": "plus",
        "timezone_value": "2",
        "population": "19009"
    },
    {
        "oblast": "Кабардино-Балкарская Республика",
        "region": "Городской округ Баксан",
        "city": "Баксан",
        "lat": "43.68475",
        "lon": "43.533192",
        "timezone_sign": "plus",
        "timezone_value": "0",
        "population": "38474"
    },
    {
        "oblast": "Калужская область",
        "region": "Боровский район",
        "city": "Балабаново",
        "lat": "55.17662",
        "lon": "36.64925",
        "timezone_sign": "plus",
        "timezone_value": "0",
        "population": "25574"
    },
    {
        "oblast": "Республика Крым",
        "region": "Севастополь",
        "city": "Балаклава",
        "lat": "44.504904",
        "lon": "33.598204",
        "timezone_sign": "plus",
        "timezone_value": "0",
        "population": "22956"
    },
    {
        "oblast": "Саратовская область",
        "region": "Балаковский район",
        "city": "Балаково",
        "lat": "52.02693",
        "lon": "47.802269",
        "timezone_sign": "plus",
        "timezone_value": "1",
        "population": "189829"
    },
    {
        "oblast": "Нижегородская область",
        "region": "Балахнинский район",
        "city": "Балахна",
        "lat": "56.500286",
        "lon": "43.586372",
        "timezone_sign": "plus",
        "timezone_value": "0",
        "population": "48520"
    },
    {
        "oblast": "Московская область",
        "region": "Городской округ Балашиха",
        "city": "Балашиха",
        "lat": "55.797286",
        "lon": "37.934417",
        "timezone_sign": "plus",
        "timezone_value": "0",
        "population": "507366"
    },
    {
        "oblast": "Саратовская область",
        "region": "Балашовский район",
        "city": "Балашов",
        "lat": "51.539898",
        "lon": "43.161196",
        "timezone_sign": "plus",
        "timezone_value": "1",
        "population": "76776"
    },
    {
        "oblast": "Забайкальский край",
        "region": "Балейский район",
        "city": "Балей",
        "lat": "51.582284",
        "lon": "116.637948",
        "timezone_sign": "plus",
        "timezone_value": "6",
        "population": "11370"
    },
    {
        "oblast": "Калининградская область",
        "region": "Калининградский район",
        "city": "Балтийск",
        "lat": "54.65455",
        "lon": "19.90929",
        "timezone_sign": "minus",
        "timezone_value": "1",
        "population": "33551"
    },
    {
        "oblast": "Новосибирская область",
        "region": "Барабинский район",
        "city": "Барабинск",
        "lat": "55.354398",
        "lon": "78.355865",
        "timezone_sign": "plus",
        "timezone_value": "4",
        "population": "29122"
    },
    {
        "oblast": "Алтайский край",
        "region": "Городской округ Барнаул",
        "city": "Барнаул",
        "lat": "53.356338",
        "lon": "83.76165",
        "timezone_sign": "plus",
        "timezone_value": "4",
        "population": "632391",
        "_edit_lock": "1600437856:1"
    },
    {
        "oblast": "Ульяновская область",
        "region": "Барышский район",
        "city": "Барыш",
        "lat": "53.653468",
        "lon": "47.118029",
        "timezone_sign": "plus",
        "timezone_value": "1",
        "population": "16147"
    },
    {
        "oblast": "Ростовская область",
        "region": "Городской округ Батайск",
        "city": "Батайск",
        "lat": "47.138779",
        "lon": "39.754719",
        "timezone_sign": "plus",
        "timezone_value": "0",
        "population": "124705"
    },
    {
        "oblast": "Республика Крым",
        "region": "Бахчисарайский район",
        "city": "Бахчисарай",
        "lat": "44.752778",
        "lon": "33.860833",
        "timezone_sign": "plus",
        "timezone_value": "0",
        "population": "26572"
    },
    {
        "oblast": "Тверская область",
        "region": "Бежецкий район",
        "city": "Бежецк",
        "lat": "57.785679",
        "lon": "36.693871",
        "timezone_sign": "plus",
        "timezone_value": "0",
        "population": "21179"
    },
    {
        "oblast": "Ростовская область",
        "region": "Белокалитвинский район",
        "city": "Белая Калитва",
        "lat": "48.176977",
        "lon": "40.80334",
        "timezone_sign": "plus",
        "timezone_value": "0",
        "population": "40831"
    },
    {
        "oblast": "Кировская область",
        "region": "Белохолуницкий район",
        "city": "Белая Холуница",
        "lat": "58.845571",
        "lon": "50.846477",
        "timezone_sign": "plus",
        "timezone_value": "1",
        "population": "10406"
    },
    {
        "oblast": "Белгородская область",
        "region": "Городской округ Белгород",
        "city": "Белгород",
        "lat": "50.596611",
        "lon": "36.609211",
        "timezone_sign": "plus",
        "timezone_value": "0",
        "population": "394142"
    },
    {
        "oblast": "Республика Башкортостан",
        "region": "Белебеевский район",
        "city": "Белебей",
        "lat": "54.099732",
        "lon": "54.119892",
        "timezone_sign": "plus",
        "timezone_value": "2",
        "population": "59137"
    },
    {
        "oblast": "Тульская область",
        "region": "Белевский район",
        "city": "Белёв",
        "lat": "53.809929",
        "lon": "36.130133",
        "timezone_sign": "plus",
        "timezone_value": "0",
        "population": "13180"
    },
    {
        "oblast": "Кемеровская область",
        "region": "Беловский городской округ",
        "city": "Белово",
        "lat": "54.422114",
        "lon": "86.303692",
        "timezone_sign": "plus",
        "timezone_value": "4",
        "population": "71812"
    },
    {
        "oblast": "Республика Крым",
        "region": "Белогорский район",
        "city": "Белогорск",
        "lat": "45.054444",
        "lon": "34.602222",
        "timezone_sign": "plus",
        "timezone_value": "0",
        "population": "16405"
    },
    {
        "oblast": "Алтайский край",
        "region": "Городской округ Белокуриха",
        "city": "Белокуриха",
        "lat": "51.996094",
        "lon": "84.983959",
        "timezone_sign": "plus",
        "timezone_value": "4",
        "population": "15160"
    },
    {
        "oblast": "Республика Башкортостан",
        "region": "Белорецкий район",
        "city": "Белорецк",
        "lat": "53.967201",
        "lon": "58.416611",
        "timezone_sign": "plus",
        "timezone_value": "2",
        "population": "65054"
    },
    {
        "oblast": "Краснодарский край",
        "region": "Белореченский район",
        "city": "Белореченск",
        "lat": "44.75425",
        "lon": "39.885448",
        "timezone_sign": "plus",
        "timezone_value": "0",
        "population": "51590"
    },
    {
        "oblast": "Калужская область",
        "region": "Жуковский район",
        "city": "Белоусово",
        "lat": "55.0917",
        "lon": "36.6756",
        "timezone_sign": "plus",
        "timezone_value": "0",
        "population": "10186"
    },
    {
        "oblast": "Ханты-Мансийский автономный округ",
        "region": "Белоярский район",
        "city": "Белоярский",
        "lat": "63.708248",
        "lon": "66.672257",
        "timezone_sign": "plus",
        "timezone_value": "2",
        "population": "19542"
    },
    {
        "oblast": "Новосибирская область",
        "region": "Городской округ Бердск",
        "city": "Бердск",
        "lat": "54.76355",
        "lon": "83.103447",
        "timezone_sign": "plus",
        "timezone_value": "4",
        "population": "103290"
    },
    {
        "oblast": "Пермский край",
        "region": "Городской округ Березники",
        "city": "Березники",
        "lat": "59.409916",
        "lon": "56.80154",
        "timezone_sign": "plus",
        "timezone_value": "2",
        "population": "141276"
    },
    {
        "oblast": "Свердловская область",
        "region": "Березовский городской округ",
        "city": "Берёзовский",
        "lat": "56.913515",
        "lon": "60.834225",
        "timezone_sign": "plus",
        "timezone_value": "2",
        "population": "59030"
    },
    {
        "oblast": "Кемеровская область",
        "region": "Берёзовский городской округ",
        "city": "Березовский",
        "lat": "55.669139",
        "lon": "86.274894",
        "timezone_sign": "plus",
        "timezone_value": "4",
        "population": "45801"
    },
    {
        "oblast": "Республика Северная Осетия — Алания",
        "region": "Правобережный район",
        "city": "Беслан",
        "lat": "43.19376",
        "lon": "44.533792",
        "timezone_sign": "plus",
        "timezone_value": "0",
        "population": "37371"
    },
    {
        "oblast": "Алтайский край",
        "region": "Городской округ Бийск",
        "city": "Бийск",
        "lat": "52.541302",
        "lon": "85.217003",
        "timezone_sign": "plus",
        "timezone_value": "4",
        "population": "200629"
    },
    {
        "oblast": "Хабаровский край",
        "region": "Бикинский район",
        "city": "Бикин",
        "lat": "46.818592",
        "lon": "134.255034",
        "timezone_sign": "plus",
        "timezone_value": "7",
        "population": "16104"
    },
    {
        "oblast": "Еврейская автономная область",
        "region": "Биробиджанский городской округ",
        "city": "Биробиджан",
        "lat": "48.794668",
        "lon": "132.921799",
        "timezone_sign": "plus",
        "timezone_value": "7",
        "population": "71843"
    },
    {
        "oblast": "Республика Башкортостан",
        "region": "Бирский район",
        "city": "Бирск",
        "lat": "55.4105",
        "lon": "55.5333",
        "timezone_sign": "plus",
        "timezone_value": "2",
        "population": "46362"
    },
    {
        "oblast": "Амурская область",
        "region": "Городской округ Благовещенск",
        "city": "Благовещенск",
        "lat": "50.290658",
        "lon": "127.527173",
        "timezone_sign": "plus",
        "timezone_value": "6",
        "population": "226385"
    },
    {
        "oblast": "Республика Башкортостан",
        "region": "Благовещенский район",
        "city": "Благовещенск",
        "lat": "55.049854",
        "lon": "55.955224",
        "timezone_sign": "plus",
        "timezone_value": "2",
        "population": "34967"
    },
    {
        "oblast": "Ставропольский край",
        "region": "Благодарненский район",
        "city": "Благодарный",
        "lat": "45.100059",
        "lon": "43.428119",
        "timezone_sign": "plus",
        "timezone_value": "0",
        "population": "30399"
    },
    {
        "oblast": "Воронежская область",
        "region": "Бобровский район",
        "city": "Бобров",
        "lat": "51.089286",
        "lon": "40.036177",
        "timezone_sign": "plus",
        "timezone_value": "0",
        "population": "20460"
    },
    {
        "oblast": "Свердловская область",
        "region": "Богдановичский городской округ",
        "city": "Богданович",
        "lat": "56.779893",
        "lon": "62.045819",
        "timezone_sign": "plus",
        "timezone_value": "2",
        "population": "29294"
    },
    {
        "oblast": "Тульская область",
        "region": "Богородицкий район",
        "city": "Богородицк",
        "lat": "53.768261",
        "lon": "38.120491",
        "timezone_sign": "plus",
        "timezone_value": "0",
        "population": "31139"
    },
    {
        "oblast": "Нижегородская область",
        "region": "Богородский район",
        "city": "Богородск",
        "lat": "56.099628",
        "lon": "43.50734",
        "timezone_sign": "plus",
        "timezone_value": "0",
        "population": "33756"
    },
    {
        "oblast": "Красноярский край",
        "region": "Городской округ Боготол",
        "city": "Боготол",
        "lat": "56.212449",
        "lon": "89.536037",
        "timezone_sign": "plus",
        "timezone_value": "4",
        "population": "19819"
    },
    {
        "oblast": "Воронежская область",
        "region": "Богучарский район",
        "city": "Богучар",
        "lat": "49.937827",
        "lon": "40.559004",
        "timezone_sign": "plus",
        "timezone_value": "0",
        "population": "11270"
    },
    {
        "oblast": "Иркутская область",
        "region": "Бодайбинский район",
        "city": "Бодайбо",
        "lat": "57.852118",
        "lon": "114.198968",
        "timezone_sign": "plus",
        "timezone_value": "5",
        "population": "11982"
    },
    {
        "oblast": "Ленинградская область",
        "region": "Бокситогорский район",
        "city": "Бокситогорск",
        "lat": "59.473572",
        "lon": "33.847675",
        "timezone_sign": "plus",
        "timezone_value": "0",
        "population": "15091"
    },
    {
        "oblast": "Тверская область",
        "region": "Бологовский район",
        "city": "Бологое",
        "lat": "57.885626",
        "lon": "34.053776",
        "timezone_sign": "plus",
        "timezone_value": "0",
        "population": "21158"
    },
    {
        "oblast": "Новосибирская область",
        "region": "Болотнинский район",
        "city": "Болотное",
        "lat": "55.670052",
        "lon": "84.386604",
        "timezone_sign": "plus",
        "timezone_value": "4",
        "population": "15629"
    },
    {
        "oblast": "Орловская область",
        "region": "Болховский район",
        "city": "Болхов",
        "lat": "53.443298",
        "lon": "36.01054",
        "timezone_sign": "plus",
        "timezone_value": "0",
        "population": "11097"
    },
    {
        "oblast": "Приморский край",
        "region": "Городской округ Большой Камень",
        "city": "Большой Камень",
        "lat": "43.11206",
        "lon": "132.345551",
        "timezone_sign": "plus",
        "timezone_value": "7",
        "population": "37918"
    },
    {
        "oblast": "Нижегородская область",
        "region": "Городской округ Бор",
        "city": "Бор",
        "lat": "56.360278",
        "lon": "44.059167",
        "timezone_sign": "plus",
        "timezone_value": "0",
        "population": "76872"
    },
    {
        "oblast": "Забайкальский край",
        "region": "Борзинский район",
        "city": "Борзя",
        "lat": "50.387629",
        "lon": "116.523485",
        "timezone_sign": "plus",
        "timezone_value": "6",
        "population": "28874"
    },
    {
        "oblast": "Воронежская область",
        "region": "Борисоглебскский городской округ",
        "city": "Борисоглебск",
        "lat": "51.36594",
        "lon": "42.08054",
        "timezone_sign": "plus",
        "timezone_value": "0",
        "population": "61765"
    },
    {
        "oblast": "Новгородская область",
        "region": "Боровичский район",
        "city": "Боровичи",
        "lat": "58.388219",
        "lon": "33.914025",
        "timezone_sign": "plus",
        "timezone_value": "0",
        "population": "49071"
    },
    {
        "oblast": "Калужская область",
        "region": "Боровский район",
        "city": "Боровск",
        "lat": "55.207634",
        "lon": "36.483584",
        "timezone_sign": "plus",
        "timezone_value": "0",
        "population": "10337"
    },
    {
        "oblast": "Красноярский край",
        "region": "Городской округ Бородино",
        "city": "Бородино",
        "lat": "55.906772",
        "lon": "94.906693",
        "timezone_sign": "plus",
        "timezone_value": "4",
        "population": "16061"
    },
    {
        "oblast": "Иркутская область",
        "region": "Городской округ Братск",
        "city": "Братск",
        "lat": "56.151362",
        "lon": "101.63408",
        "timezone_sign": "plus",
        "timezone_value": "5",
        "population": "226269"
    },
    {
        "oblast": "Московская область",
        "region": "Городской округ Бронницы",
        "city": "Бронницы",
        "lat": "55.424235",
        "lon": "38.254631",
        "timezone_sign": "plus",
        "timezone_value": "0",
        "population": "22531"
    },
    {
        "oblast": "Брянская область",
        "region": "Городской округ Брянск",
        "city": "Брянск",
        "lat": "53.242802",
        "lon": "34.366039",
        "timezone_sign": "plus",
        "timezone_value": "0",
        "population": "402675"
    },
    {
        "oblast": "Республика Татарстан",
        "region": "Бугульминский район",
        "city": "Бугульма",
        "lat": "54.536413",
        "lon": "52.789489",
        "timezone_sign": "plus",
        "timezone_value": "0",
        "population": "83536"
    },
    {
        "oblast": "Оренбургская область",
        "region": "Городской округ Бугуруслан",
        "city": "Бугуруслан",
        "lat": "53.656962",
        "lon": "52.436585",
        "timezone_sign": "plus",
        "timezone_value": "2",
        "population": "48669"
    },
    {
        "oblast": "Ставропольский край",
        "region": "Буденновский район",
        "city": "Будённовск",
        "lat": "44.780739",
        "lon": "44.148498",
        "timezone_sign": "plus",
        "timezone_value": "0",
        "population": "61329"
    },
    {
        "oblast": "Оренбургская область",
        "region": "Городской округ Бузулук",
        "city": "Бузулук",
        "lat": "52.78524",
        "lon": "52.25264",
        "timezone_sign": "plus",
        "timezone_value": "2",
        "population": "86050"
    },
    {
        "oblast": "Республика Татарстан",
        "region": "Буинский район",
        "city": "Буинск",
        "lat": "54.964221",
        "lon": "48.28907",
        "timezone_sign": "plus",
        "timezone_value": "0",
        "population": "20681"
    },
    {
        "oblast": "Костромская область",
        "region": "Городской округ Буй",
        "city": "Буй",
        "lat": "58.481719",
        "lon": "41.533113",
        "timezone_sign": "plus",
        "timezone_value": "0",
        "population": "23233"
    },
    {
        "oblast": "Республика Дагестан",
        "region": "Городской округ Буйнакск",
        "city": "Буйнакск",
        "lat": "42.820629",
        "lon": "47.117901",
        "timezone_sign": "plus",
        "timezone_value": "0",
        "population": "65658"
    },
    {
        "oblast": "Воронежская область",
        "region": "Бутурлиновский район",
        "city": "Бутурлиновка",
        "lat": "50.830631",
        "lon": "40.586498",
        "timezone_sign": "plus",
        "timezone_value": "0",
        "population": "24319"
    },
    {
        "oblast": "Новгородская область",
        "region": "Валдайский район",
        "city": "Валдай",
        "lat": "57.979719",
        "lon": "33.253469",
        "timezone_sign": "plus",
        "timezone_value": "0",
        "population": "14119"
    },
    {
        "oblast": "Белгородская область",
        "region": "Валуйский район",
        "city": "Валуйки",
        "lat": "50.213268",
        "lon": "38.10199",
        "timezone_sign": "plus",
        "timezone_value": "0",
        "population": "34193"
    },
    {
        "oblast": "Псковская область",
        "region": "Городской округ Великие Луки",
        "city": "Великие Луки",
        "lat": "56.346821",
        "lon": "30.538999",
        "timezone_sign": "plus",
        "timezone_value": "0",
        "population": "90922"
    },
    {
        "oblast": "Новгородская область",
        "region": "Городской округ Великий Новгород",
        "city": "Великий Новгород",
        "lat": "58.544971",
        "lon": "31.269119",
        "timezone_sign": "plus",
        "timezone_value": "0",
        "population": "224936"
    },
    {
        "oblast": "Вологодская область",
        "region": "Великоустюгский район",
        "city": "Великий Устюг",
        "lat": "60.763229",
        "lon": "46.307789",
        "timezone_sign": "plus",
        "timezone_value": "0",
        "population": "31606"
    },
    {
        "oblast": "Архангельская область",
        "region": "Вельский район",
        "city": "Вельск",
        "lat": "61.066971",
        "lon": "42.10183",
        "timezone_sign": "plus",
        "timezone_value": "0",
        "population": "22776"
    },
    {
        "oblast": "Тульская область",
        "region": "Венёвский район",
        "city": "Венёв",
        "lat": "54.354284",
        "lon": "38.264314",
        "timezone_sign": "plus",
        "timezone_value": "0",
        "population": "14191"
    },
    {
        "oblast": "Пермский край",
        "region": "Верещагинский район",
        "city": "Верещагино",
        "lat": "58.074453",
        "lon": "54.679854",
        "timezone_sign": "plus",
        "timezone_value": "2",
        "population": "21648"
    },
    {
        "oblast": "Свердловская область",
        "region": "Городской округ Верхний Тагил",
        "city": "Верхний Тагил",
        "lat": "57.378069",
        "lon": "59.954526",
        "timezone_sign": "plus",
        "timezone_value": "2",
        "population": "10493"
    },
    {
        "oblast": "Челябинская область",
        "region": "Верхнеуфалейский городской округ",
        "city": "Верхний Уфалей",
        "lat": "56.048721",
        "lon": "60.23195",
        "timezone_sign": "plus",
        "timezone_value": "2",
        "population": "26884"
    },
    {
        "oblast": "Свердловская область",
        "region": "Городской округ Верхняя Пышма",
        "city": "Верхняя Пышма",
        "lat": "56.963739",
        "lon": "60.569519",
        "timezone_sign": "plus",
        "timezone_value": "2",
        "population": "72688"
    },
    {
        "oblast": "Свердловская область",
        "region": "Верхнесалдинский городской округ",
        "city": "Верхняя Салда",
        "lat": "58.047383",
        "lon": "60.556952",
        "timezone_sign": "plus",
        "timezone_value": "2",
        "population": "41228"
    },
    {
        "oblast": "Московская область",
        "region": "Ленинский район",
        "city": "Видное",
        "lat": "55.551818",
        "lon": "37.706254",
        "timezone_sign": "plus",
        "timezone_value": "0",
        "population": "77018"
    },
    {
        "oblast": "Республика Саха (Якутия)",
        "region": "Вилюйский район",
        "city": "Вилюйск",
        "lat": "63.751909",
        "lon": "121.628108",
        "timezone_sign": "plus",
        "timezone_value": "6",
        "population": "11095"
    },
    {
        "oblast": "Камчатский край",
        "region": "Вилючинский городской округ",
        "city": "Вилючинск",
        "lat": "52.930329",
        "lon": "158.40571",
        "timezone_sign": "plus",
        "timezone_value": "9",
        "population": "22223"
    },
    {
        "oblast": "Иркутская область",
        "region": "Братский район",
        "city": "Вихоревка",
        "lat": "56.120049",
        "lon": "101.172371",
        "timezone_sign": "plus",
        "timezone_value": "5",
        "population": "20833"
    },
    {
        "oblast": "Ивановская область",
        "region": "Городской округ Вичуга",
        "city": "Вичуга",
        "lat": "57.209317",
        "lon": "41.921387",
        "timezone_sign": "plus",
        "timezone_value": "0",
        "population": "33292"
    },
    {
        "oblast": "Приморский край",
        "region": "Владивостокский городской округ",
        "city": "Владивосток",
        "lat": "43.116391",
        "lon": "131.882421",
        "timezone_sign": "plus",
        "timezone_value": "7",
        "population": "606561"
    },
    {
        "oblast": "Республика Северная Осетия — Алания",
        "region": "Городской округ Владикавказ",
        "city": "Владикавказ",
        "lat": "43.031231",
        "lon": "44.67577",
        "timezone_sign": "plus",
        "timezone_value": "0",
        "population": "303597"
    },
    {
        "oblast": "Владимирская область",
        "region": "Городской округ Владимир",
        "city": "Владимир",
        "lat": "56.127701",
        "lon": "40.407559",
        "timezone_sign": "plus",
        "timezone_value": "0",
        "population": "356937"
    },
    {
        "oblast": "Волгоградская область",
        "region": "Городской округ Волгоград",
        "city": "Волгоград",
        "lat": "48.718079",
        "lon": "44.504639",
        "timezone_value": "1",
        "population": "1008998",
        "_edit_lock": "1597149096:1",
        "_edit_last": "1"
    },
    {
        "oblast": "Ростовская область",
        "region": "Городской округ Волгодонск",
        "city": "Волгодонск",
        "lat": "47.519039",
        "lon": "42.141178",
        "timezone_sign": "plus",
        "timezone_value": "0",
        "population": "172050"
    },
    {
        "oblast": "Костромская область",
        "region": "Городской округ Волгореченск",
        "city": "Волгореченск",
        "lat": "57.438961",
        "lon": "41.163929",
        "timezone_sign": "plus",
        "timezone_value": "0",
        "population": "16276"
    },
    {
        "oblast": "Республика Марий Эл",
        "region": "Городской округ Волжск",
        "city": "Волжск",
        "lat": "55.870418",
        "lon": "48.356048",
        "timezone_sign": "plus",
        "timezone_value": "0",
        "population": "53216"
    },
    {
        "oblast": "Волгоградская область",
        "region": "Городской округ Волжский",
        "city": "Волжский",
        "lat": "48.79509",
        "lon": "44.80069",
        "timezone_sign": "plus",
        "timezone_value": "1",
        "population": "323604"
    },
    {
        "oblast": "Вологодская область",
        "region": "Городской округ Вологда",
        "city": "Вологда",
        "lat": "59.215241",
        "lon": "39.876709",
        "timezone_sign": "plus",
        "timezone_value": "0",
        "population": "310302"
    },
    {
        "oblast": "Московская область",
        "region": "Волоколамский район",
        "city": "Волоколамск",
        "lat": "56.036628",
        "lon": "35.957243",
        "timezone_sign": "plus",
        "timezone_value": "0",
        "population": "18372"
    },
    {
        "oblast": "Ленинградская область",
        "region": "Волосовский район",
        "city": "Волосово",
        "lat": "59.447275",
        "lon": "29.48481",
        "timezone_sign": "plus",
        "timezone_value": "0",
        "population": "11828"
    },
    {
        "oblast": "Саратовская область",
        "region": "Вольский район",
        "city": "Вольск",
        "lat": "52.044861",
        "lon": "47.376011",
        "timezone_sign": "plus",
        "timezone_value": "1",
        "population": "63212"
    },
    {
        "oblast": "Республика Коми",
        "region": "Городской округ Воркута",
        "city": "Воркута",
        "lat": "67.485046",
        "lon": "64.029739",
        "timezone_sign": "plus",
        "timezone_value": "0",
        "population": "54223"
    },
    {
        "oblast": "Воронежская область",
        "region": "Городской округ Воронеж",
        "city": "Воронеж",
        "lat": "51.660219",
        "lon": "39.197539",
        "population": "900261",
        "_edit_lock": "1597147758:1",
        "_edit_last": "1"
    },
    {
        "oblast": "Нижегородская область",
        "region": "Павловский район",
        "city": "Ворсма",
        "lat": "55.98999",
        "lon": "43.271955",
        "timezone_sign": "plus",
        "timezone_value": "0",
        "population": "10253"
    },
    {
        "oblast": "Московская область",
        "region": "Серпуховский Район",
        "city": "Воскресенск",
        "lat": "55.317539",
        "lon": "38.685928",
        "timezone_sign": "plus",
        "timezone_value": "0",
        "population": "92911"
    },
    {
        "oblast": "Удмуртская Республика",
        "region": "Городской округ Воткинск",
        "city": "Воткинск",
        "lat": "57.048559",
        "lon": "53.983395",
        "timezone_sign": "plus",
        "timezone_value": "1",
        "population": "98063"
    },
    {
        "oblast": "Ленинградская область",
        "region": "Всеволожский район",
        "city": "Всеволожск",
        "lat": "60.019041",
        "lon": "30.645577",
        "timezone_sign": "plus",
        "timezone_value": "0",
        "population": "74724"
    },
    {
        "oblast": "Ленинградская область",
        "region": "Выборгский район",
        "city": "Выборг",
        "lat": "60.703701",
        "lon": "28.771061",
        "timezone_sign": "plus",
        "timezone_value": "0",
        "population": "75355"
    },
    {
        "oblast": "Нижегородская область",
        "region": "Городской округ Выкса",
        "city": "Выкса",
        "lat": "55.319444",
        "lon": "42.173056",
        "timezone_sign": "plus",
        "timezone_value": "0",
        "population": "53010"
    },
    {
        "oblast": "Московская область",
        "region": "Клинский район",
        "city": "Высоковск",
        "lat": "56.320208",
        "lon": "36.551982",
        "timezone_sign": "plus",
        "timezone_value": "0",
        "population": "10362"
    },
    {
        "oblast": "Вологодская область",
        "region": "Вытегорский район",
        "city": "Вытегра",
        "lat": "61.006237",
        "lon": "36.449807",
        "timezone_sign": "plus",
        "timezone_value": "0",
        "population": "10232"
    },
    {
        "oblast": "Тверская область",
        "region": "Городской округ Вышний Волочёк",
        "city": "Вышний Волочёк",
        "lat": "57.591518",
        "lon": "34.556499",
        "timezone_sign": "plus",
        "timezone_value": "0",
        "population": "46211"
    },
    {
        "oblast": "Хабаровский край",
        "region": "Вяземский район",
        "city": "Вяземский",
        "lat": "47.535572",
        "lon": "134.75461",
        "timezone_sign": "plus",
        "timezone_value": "7",
        "population": "12999"
    },
    {
        "oblast": "Владимирская область",
        "region": "Вязниковский район",
        "city": "Вязники",
        "lat": "56.247021",
        "lon": "42.158862",
        "timezone_sign": "plus",
        "timezone_value": "0",
        "population": "35865"
    },
    {
        "oblast": "Смоленская область",
        "region": "Вяземский район",
        "city": "Вязьма",
        "lat": "55.207207",
        "lon": "34.296555",
        "timezone_sign": "plus",
        "timezone_value": "0",
        "population": "52347"
    },
    {
        "oblast": "Кировская область",
        "region": "Городской округ Вятские Поляны",
        "city": "Вятские Поляны",
        "lat": "56.229892",
        "lon": "51.066915",
        "timezone_sign": "plus",
        "timezone_value": "1",
        "population": "32562"
    },
    {
        "oblast": "Ярославская область",
        "region": "Гаврилов-Ямский район",
        "city": "Гаврилов-Ям",
        "lat": "57.302129",
        "lon": "39.856899",
        "timezone_sign": "plus",
        "timezone_value": "0",
        "population": "16536"
    },
    {
        "oblast": "Смоленская область",
        "region": "Гагаринский район",
        "city": "Гагарин",
        "lat": "55.553299",
        "lon": "34.996845",
        "timezone_sign": "plus",
        "timezone_value": "0",
        "population": "28866"
    },
    {
        "oblast": "Мурманская область",
        "region": "Городской округ Мурманск",
        "city": "Гаджиево",
        "lat": "69.249049",
        "lon": "33.315262",
        "timezone_sign": "plus",
        "timezone_value": "0",
        "population": "13259"
    },
    {
        "oblast": "Оренбургская область",
        "region": "Гайский городской округ",
        "city": "Гай",
        "lat": "51.464996",
        "lon": "58.443683",
        "timezone_sign": "plus",
        "timezone_value": "2",
        "population": "34205"
    },
    {
        "oblast": "Костромская область",
        "region": "Городской округ Галич",
        "city": "Галич",
        "lat": "58.381199",
        "lon": "42.347499",
        "timezone_sign": "plus",
        "timezone_value": "0",
        "population": "16754"
    },
    {
        "oblast": "Ленинградская область",
        "region": "Гатчинский район",
        "city": "Гатчина",
        "lat": "59.565155",
        "lon": "30.128165",
        "timezone_sign": "plus",
        "timezone_value": "0",
        "population": "91685"
    },
    {
        "oblast": "Калининградская область",
        "region": "Гвардейский район",
        "city": "Гвардейск",
        "lat": "54.64772",
        "lon": "21.06513",
        "timezone_sign": "minus",
        "timezone_value": "1",
        "population": "13190"
    },
    {
        "oblast": "Краснодарский край",
        "region": "Городской округ Геленджик",
        "city": "Геленджик",
        "lat": "44.577709",
        "lon": "38.080212",
        "timezone_sign": "minus",
        "timezone_value": "0",
        "population": "76783"
    },
    {
        "oblast": "Ставропольский край",
        "region": "Городской округ Георгиевск",
        "city": "Георгиевск",
        "lat": "44.14735",
        "lon": "43.46875",
        "timezone_sign": "minus",
        "timezone_value": "0",
        "population": "66436"
    },
    {
        "oblast": "Удмуртская Республика",
        "region": "Глазовский район",
        "city": "Глазов",
        "lat": "58.135288",
        "lon": "52.662441",
        "timezone_sign": "plus",
        "timezone_value": "1",
        "population": "93628"
    },
    {
        "oblast": "Московская область",
        "region": "Одинцовский район",
        "city": "Голицыно",
        "lat": "55.614813",
        "lon": "36.987176",
        "timezone_sign": "plus",
        "timezone_value": "0",
        "population": "17502"
    },
    {
        "oblast": "Республика Алтай",
        "region": "Майминский район",
        "city": "Горно-Алтайск",
        "lat": "51.958118",
        "lon": "85.971291",
        "timezone_sign": "plus",
        "timezone_value": "4",
        "population": "64464"
    },
    {
        "oblast": "Пермский край",
        "region": "Горнозаводский район",
        "city": "Горнозаводск",
        "lat": "58.376718",
        "lon": "58.318264",
        "timezone_sign": "plus",
        "timezone_value": "2",
        "population": "11274"
    },
    {
        "oblast": "Алтайский край",
        "region": "Локтевский район",
        "city": "Горняк",
        "lat": "50.993038",
        "lon": "81.467934",
        "timezone_sign": "plus",
        "timezone_value": "4",
        "population": "12654"
    },
    {
        "oblast": "Нижегородская область",
        "region": "Городецкий район",
        "city": "Городец",
        "lat": "56.650278",
        "lon": "43.470278",
        "timezone_sign": "plus",
        "timezone_value": "0",
        "population": "29712"
    },
    {
        "oblast": "Владимирская область",
        "region": "Гороховецкий район",
        "city": "Гороховец",
        "lat": "56.197338",
        "lon": "42.703129",
        "timezone_sign": "plus",
        "timezone_value": "0",
        "population": "12799"
    },
    {
        "oblast": "Краснодарский край",
        "region": "Городской округ Горячий Ключ",
        "city": "Горячий Ключ",
        "lat": "44.630459",
        "lon": "39.145828",
        "timezone_sign": "plus",
        "timezone_value": "0",
        "population": "40299"
    },
    {
        "oblast": "Чеченская Республика",
        "region": "Городской округ Грозный",
        "city": "Грозный",
        "lat": "43.309841",
        "lon": "45.670391",
        "timezone_sign": "plus",
        "timezone_value": "0",
        "population": "305911"
    },
    {
        "oblast": "Липецкая область",
        "region": "Грязинский район",
        "city": "Грязи",
        "lat": "52.493511",
        "lon": "39.91077",
        "timezone_sign": "plus",
        "timezone_value": "0",
        "population": "46683"
    },
    {
        "oblast": "Вологодская область",
        "region": "Грязовецкий район",
        "city": "Грязовец",
        "lat": "58.882299",
        "lon": "40.247371",
        "timezone_sign": "plus",
        "timezone_value": "0",
        "population": "14916"
    },
    {
        "oblast": "Пермский край",
        "region": "Городской округ Губаха",
        "city": "Губаха",
        "lat": "58.837083",
        "lon": "57.554503",
        "timezone_sign": "plus",
        "timezone_value": "2",
        "population": "19472"
    },
    {
        "oblast": "Белгородская область",
        "region": "Губкинский городской округ",
        "city": "Губкин",
        "lat": "51.288446",
        "lon": "37.530845",
        "timezone_sign": "plus",
        "timezone_value": "0",
        "population": "86422"
    },
    {
        "oblast": "Ямало-Ненецкий автономный округ",
        "region": "Городской округ Губкинский",
        "city": "Губкинский",
        "lat": "64.433333",
        "lon": "76.5",
        "timezone_sign": "plus",
        "timezone_value": "2",
        "population": "29161"
    },
    {
        "oblast": "Чеченская Республика",
        "region": "Гудермесский район",
        "city": "Гудермес",
        "lat": "43.35188",
        "lon": "46.103535",
        "timezone_sign": "plus",
        "timezone_value": "0",
        "population": "55863"
    },
    {
        "oblast": "Ростовская область",
        "region": "Городской округ Гуково",
        "city": "Гуково",
        "lat": "48.050831",
        "lon": "39.942501",
        "timezone_sign": "plus",
        "timezone_value": "0",
        "population": "66332"
    },
    {
        "oblast": "Краснодарский край",
        "region": "Гулькевичский район",
        "city": "Гулькевичи",
        "lat": "45.35358",
        "lon": "40.694469",
        "timezone_sign": "plus",
        "timezone_value": "0",
        "population": "34272"
    },
    {
        "oblast": "Калининградская область",
        "region": "Гурьевский городской округ",
        "city": "Гурьевск",
        "lat": "54.77323",
        "lon": "20.60521",
        "timezone_sign": "minus",
        "timezone_value": "1",
        "population": "18317"
    },
    {
        "oblast": "Кемеровская область",
        "region": "Гурьевский район",
        "city": "Гурьевск",
        "lat": "54.286771",
        "lon": "85.950276",
        "timezone_sign": "plus",
        "timezone_value": "4",
        "population": "22569"
    },
    {
        "oblast": "Калининградская область",
        "region": "Гусевский городской округ",
        "city": "Гусев",
        "lat": "54.59222",
        "lon": "22.19972",
        "timezone_sign": "minus",
        "timezone_value": "1",
        "population": "28307"
    },
    {
        "oblast": "Республика Бурятия",
        "region": "Селенгинский район",
        "city": "Гусиноозёрск",
        "lat": "51.284081",
        "lon": "106.526383",
        "timezone_sign": "plus",
        "timezone_value": "5",
        "population": "23280"
    },
    {
        "oblast": "Владимирская область",
        "region": "Городской округ Гусь-Хрустальный",
        "city": "Гусь-Хрустальный",
        "lat": "55.619818",
        "lon": "40.657902",
        "timezone_sign": "plus",
        "timezone_value": "0",
        "population": "54533"
    },
    {
        "oblast": "Республика Башкортостан",
        "region": "Давлекановский район",
        "city": "Давлеканово",
        "lat": "54.212719",
        "lon": "55.017109",
        "timezone_sign": "plus",
        "timezone_value": "2",
        "population": "23499"
    },
    {
        "oblast": "Республика Дагестан",
        "region": "Городской округ Дагестанские Огни",
        "city": "Дагестанские Огни",
        "lat": "42.122841",
        "lon": "48.19368",
        "timezone_sign": "plus",
        "timezone_value": "0",
        "population": "29716"
    },
    {
        "oblast": "Курганская область",
        "region": "Далматовский район",
        "city": "Далматово",
        "lat": "56.262053",
        "lon": "62.938754",
        "timezone_sign": "plus",
        "timezone_value": "2",
        "population": "12772"
    },
    {
        "oblast": "Приморский край",
        "region": "Дальнегорский городской округ",
        "city": "Дальнегорск",
        "lat": "44.554037",
        "lon": "135.566224",
        "timezone_sign": "plus",
        "timezone_value": "7",
        "population": "34454"
    },
    {
        "oblast": "Приморский край",
        "region": "Дальнереченский район",
        "city": "Дальнереченск",
        "lat": "45.928711",
        "lon": "133.738236",
        "timezone_sign": "plus",
        "timezone_value": "7",
        "population": "25482"
    },
    {
        "oblast": "Ярославская область",
        "region": "Даниловский район",
        "city": "Данилов",
        "lat": "58.187861",
        "lon": "40.174815",
        "timezone_sign": "plus",
        "timezone_value": "0",
        "population": "14522"
    },
    {
        "oblast": "Липецкая область",
        "region": "Данковский район",
        "city": "Данков",
        "lat": "53.24963",
        "lon": "39.14278",
        "timezone_sign": "plus",
        "timezone_value": "0",
        "population": "18711"
    },
    {
        "oblast": "Свердловская область",
        "region": "Городской округ Дегтярск",
        "city": "Дегтярск",
        "lat": "56.705652",
        "lon": "60.087253",
        "timezone_sign": "plus",
        "timezone_value": "2",
        "population": "15636"
    },
    {
        "oblast": "Московская область",
        "region": "Истринский район",
        "city": "Дедовск",
        "lat": "55.859842",
        "lon": "37.120633",
        "timezone_sign": "plus",
        "timezone_value": "0",
        "population": "30500"
    },
    {
        "oblast": "Республика Дагестан",
        "region": "Городской округ Дербент",
        "city": "Дербент",
        "lat": "42.057831",
        "lon": "48.30048",
        "population": "1325832",
        "_edit_lock": "1597174274:1",
        "_edit_last": "1"
    },
    {
        "oblast": "Смоленская область",
        "region": "Городской округ Десногорск",
        "city": "Десногорск",
        "lat": "54.143452",
        "lon": "33.29081",
        "timezone_sign": "plus",
        "timezone_value": "0",
        "population": "27225"
    },
    {
        "oblast": "Республика Крым",
        "region": "Городской округ Джанкой",
        "city": "Джанкой",
        "lat": "45.708611",
        "lon": "34.393333",
        "timezone_sign": "plus",
        "timezone_value": "0",
        "population": "38438"
    },
    {
        "oblast": "Нижегородская область",
        "region": "Городской округ Дзержинск",
        "city": "Дзержинск",
        "lat": "56.232556",
        "lon": "43.448112",
        "timezone_sign": "plus",
        "timezone_value": "0",
        "population": "229000"
    },
    {
        "oblast": "Московская область",
        "region": "Городской округ Дзержинский",
        "city": "Дзержинский",
        "lat": "55.625237",
        "lon": "37.846265",
        "timezone_sign": "plus",
        "timezone_value": "0",
        "population": "56376"
    },
    {
        "oblast": "Красноярский край",
        "region": "Городской округ Дивногорск",
        "city": "Дивногорск",
        "lat": "55.958729",
        "lon": "92.37648",
        "timezone_sign": "plus",
        "timezone_value": "4",
        "population": "29195"
    },
    {
        "oblast": "Республика Северная Осетия — Алания",
        "region": "Дигорский район",
        "city": "Дигора",
        "lat": "43.156732",
        "lon": "44.155035",
        "timezone_sign": "plus",
        "timezone_value": "0",
        "population": "10089"
    },
    {
        "oblast": "Ульяновская область",
        "region": "Городской округ Димитровград",
        "city": "Димитровград",
        "lat": "54.223938",
        "lon": "49.600802",
        "timezone_sign": "plus",
        "timezone_value": "1",
        "population": "115253"
    },
    {
        "oblast": "Московская область",
        "region": "Дмитровский район",
        "city": "Дмитров",
        "lat": "56.362499",
        "lon": "37.541111",
        "timezone_sign": "plus",
        "timezone_value": "0",
        "population": "68792"
    },
    {
        "oblast": "Пермский край",
        "region": "Добрянский район",
        "city": "Добрянка",
        "lat": "58.469715",
        "lon": "56.413113",
        "timezone_sign": "plus",
        "timezone_value": "2",
        "population": "32304"
    },
    {
        "oblast": "Московская область",
        "region": "Городской округ Долгопрудный",
        "city": "Долгопрудный",
        "lat": "55.929729",
        "lon": "37.524571",
        "timezone_sign": "plus",
        "timezone_value": "0",
        "population": "116038"
    },
    {
        "oblast": "Сахалинская область",
        "region": "Долинский городской округ",
        "city": "Долинск",
        "lat": "47.323736",
        "lon": "142.797886",
        "timezone_sign": "plus",
        "timezone_value": "8",
        "population": "11685"
    },
    {
        "oblast": "Московская область",
        "region": "Городской округ Домодедово",
        "city": "Домодедово",
        "lat": "55.4413",
        "lon": "37.75367",
        "timezone_sign": "plus",
        "timezone_value": "0",
        "population": "137160"
    },
    {
        "oblast": "Ростовская область",
        "region": "Городской округ Донецк",
        "city": "Донецк",
        "lat": "48.337929",
        "lon": "39.96183",
        "timezone_sign": "plus",
        "timezone_value": "0",
        "population": "48428"
    },
    {
        "oblast": "Тульская область",
        "region": "Городской округ Донской",
        "city": "Донской",
        "lat": "53.962898",
        "lon": "38.32869",
        "timezone_sign": "plus",
        "timezone_value": "0",
        "population": "63631"
    },
    {
        "oblast": "Московская область",
        "region": "Орехово-Зуевский район",
        "city": "Дрезна",
        "lat": "55.744672",
        "lon": "38.849118",
        "timezone_sign": "plus",
        "timezone_value": "0",
        "population": "11313"
    },
    {
        "oblast": "Московская область",
        "region": "Городской округ Дубна",
        "city": "Дубна",
        "lat": "56.755192",
        "lon": "37.139721",
        "timezone_sign": "plus",
        "timezone_value": "0",
        "population": "74985"
    },
    {
        "oblast": "Волгоградская область",
        "region": "Дубовский район",
        "city": "Дубовка",
        "lat": "49.056737",
        "lon": "44.83473",
        "timezone_sign": "plus",
        "timezone_value": "1",
        "population": "13805"
    },
    {
        "oblast": "Красноярский край",
        "region": "Таймырский Долгано-Ненецкий  район",
        "city": "Дудинка",
        "lat": "69.405498",
        "lon": "86.164078",
        "timezone_sign": "plus",
        "timezone_value": "4",
        "population": "21015"
    },
    {
        "oblast": "Республика Башкортостан",
        "region": "Дюртюлинский район",
        "city": "Дюртюли",
        "lat": "55.482797",
        "lon": "54.875457",
        "timezone_sign": "plus",
        "timezone_value": "2",
        "population": "30912"
    },
    {
        "oblast": "Брянская область",
        "region": "Дятьковский район",
        "city": "Дятьково",
        "lat": "53.5882",
        "lon": "34.352779",
        "timezone_sign": "plus",
        "timezone_value": "0",
        "population": "26483"
    },
    {
        "oblast": "Республика Крым",
        "region": "Городской округ Евпатория",
        "city": "Евпатория",
        "lat": "45.190445",
        "lon": "33.366861",
        "timezone_sign": "plus",
        "timezone_value": "0",
        "population": "107650"
    },
    {
        "oblast": "Московская область",
        "region": "Егорьевский район",
        "city": "Егорьевск",
        "lat": "55.380039",
        "lon": "39.03569",
        "timezone_sign": "plus",
        "timezone_value": "0",
        "population": "72763"
    },
    {
        "oblast": "Краснодарский край",
        "region": "Ейский район",
        "city": "Ейск",
        "lat": "46.691879",
        "lon": "38.285641",
        "timezone_sign": "plus",
        "timezone_value": "0",
        "population": "83094"
    },
    {
        "oblast": "Свердловская область",
        "region": "Городской округ Екатеринбург",
        "city": "Екатеринбург",
        "lat": "56.839824",
        "lon": "60.592108",
        "timezone_value": "2",
        "population": "1493749",
        "_edit_lock": "1597148467:1",
        "_edit_last": "1"
    },
    {
        "oblast": "Республика Татарстан",
        "region": "Елабужский район",
        "city": "Елабуга",
        "lat": "55.761678",
        "lon": "52.062506",
        "timezone_sign": "plus",
        "timezone_value": "0",
        "population": "73913"
    },
    {
        "oblast": "Липецкая область",
        "region": "Городской округ Елец",
        "city": "Елец",
        "lat": "52.622098",
        "lon": "38.500711",
        "timezone_sign": "plus",
        "timezone_value": "0",
        "population": "102313"
    },
    {
        "oblast": "Камчатский край",
        "region": "Елизовский район",
        "city": "Елизово",
        "lat": "53.183026",
        "lon": "158.388355",
        "timezone_sign": "plus",
        "timezone_value": "9",
        "population": "39345"
    },
    {
        "oblast": "Челябинская область",
        "region": "Еманжелинский район",
        "city": "Еманжелинск",
        "lat": "54.756113",
        "lon": "61.325833",
        "timezone_sign": "plus",
        "timezone_value": "2",
        "population": "28217"
    },
    {
        "oblast": "Республика Коми",
        "region": "Княжпогостский район",
        "city": "Емва",
        "lat": "62.594368",
        "lon": "50.861192",
        "timezone_sign": "plus",
        "timezone_value": "0",
        "population": "12452"
    },
    {
        "oblast": "Красноярский край",
        "region": "Городской округ Енисейск",
        "city": "Енисейск",
        "lat": "58.448619",
        "lon": "92.165163",
        "timezone_sign": "plus",
        "timezone_value": "4",
        "population": "17805"
    },
    {
        "oblast": "Калужская область",
        "region": "Боровский район",
        "city": "Ермолино",
        "lat": "55.1928",
        "lon": "36.5964",
        "timezone_sign": "plus",
        "timezone_value": "0",
        "population": "10120"
    },
    {
        "oblast": "Саратовская область",
        "region": "Ершовский район",
        "city": "Ершов",
        "lat": "51.351246",
        "lon": "48.273478",
        "timezone_sign": "plus",
        "timezone_value": "1",
        "population": "19590"
    },
    {
        "oblast": "Ставропольский край",
        "region": "Городской округ Город-курорт Ессентуки",
        "city": "Ессентуки",
        "lat": "44.049808",
        "lon": "42.857239",
        "timezone_sign": "plus",
        "timezone_value": "0",
        "population": "113056"
    },
    {
        "oblast": "Тульская область",
        "region": "Городской округ Ефремов",
        "city": "Ефремов",
        "lat": "53.13905",
        "lon": "38.113689",
        "timezone_sign": "plus",
        "timezone_value": "0",
        "population": "35168"
    },
    {
        "oblast": "Ставропольский край",
        "region": "Городской округ Город-курорт Железноводск",
        "city": "Железноводск",
        "lat": "44.132038",
        "lon": "43.030551",
        "timezone_sign": "plus",
        "timezone_value": "0",
        "population": "24919"
    },
    {
        "oblast": "Курская область",
        "region": "Городской округ Железногорск",
        "city": "Железногорск",
        "lat": "52.337949",
        "lon": "35.351725",
        "timezone_sign": "plus",
        "timezone_value": "0",
        "population": "100740"
    },
    {
        "oblast": "Красноярский край",
        "region": "Городской округ ЗАТО Железногорск",
        "city": "Железногорск",
        "lat": "56.250251",
        "lon": "93.533118",
        "timezone_sign": "plus",
        "timezone_value": "4",
        "population": "83857"
    },
    {
        "oblast": "Иркутская область",
        "region": "Нижнеилимский район",
        "city": "Железногорск-Илимский",
        "lat": "56.58585",
        "lon": "104.127318",
        "timezone_sign": "plus",
        "timezone_value": "5",
        "population": "22950"
    },
    {
        "oblast": "Тамбовская область",
        "region": "Жердевский район",
        "city": "Жердевка",
        "lat": "51.842282",
        "lon": "41.461796",
        "timezone_sign": "plus",
        "timezone_value": "0",
        "population": "14214"
    },
    {
        "oblast": "Самарская область",
        "region": "Городской округ Жигулёвск",
        "city": "Жигулёвск",
        "lat": "53.401129",
        "lon": "49.512703",
        "timezone_sign": "plus",
        "timezone_value": "1",
        "population": "54343"
    },
    {
        "oblast": "Волгоградская область",
        "region": "Жирновский район",
        "city": "Жирновск",
        "lat": "50.976871",
        "lon": "44.785042",
        "timezone_sign": "plus",
        "timezone_value": "1",
        "population": "15516"
    },
    {
        "oblast": "Брянская область",
        "region": "Жуковский район",
        "city": "Жуковка",
        "lat": "53.538971",
        "lon": "33.736179",
        "timezone_sign": "plus",
        "timezone_value": "0",
        "population": "16671"
    },
    {
        "oblast": "Московская область",
        "region": "Городской округ Жуковский",
        "city": "Жуковский",
        "lat": "55.600303",
        "lon": "38.122066",
        "timezone_sign": "plus",
        "timezone_value": "0",
        "population": "107560"
    },
    {
        "oblast": "Амурская область",
        "region": "Завитинский район",
        "city": "Завитинск",
        "lat": "50.106518",
        "lon": "129.439309",
        "timezone_sign": "plus",
        "timezone_value": "6",
        "population": "10721"
    },
    {
        "oblast": "Тюменская область",
        "region": "Городской округ Заводоуковск",
        "city": "Заводоуковск",
        "lat": "56.502659",
        "lon": "66.548126",
        "timezone_sign": "plus",
        "timezone_value": "2",
        "population": "26195"
    },
    {
        "oblast": "Нижегородская область",
        "region": "Городецкий район",
        "city": "Завольжье",
        "lat": "56.638279",
        "lon": "43.399001",
        "timezone_sign": "plus",
        "timezone_value": "0",
        "population": "38527"
    },
    {
        "oblast": "Московская область",
        "region": "Сергиево-Посадский район",
        "city": "Загорский",
        "lat": "56.441559",
        "lon": "38.238643",
        "timezone_sign": "plus",
        "timezone_value": "0",
        "population": "12800"
    },
    {
        "oblast": "Республика Татарстан",
        "region": "Заинский район",
        "city": "Заинск",
        "lat": "55.298984",
        "lon": "52.006391",
        "timezone_sign": "plus",
        "timezone_value": "0",
        "population": "39938"
    },
    {
        "oblast": "Республика Бурятия",
        "region": "Закаменский район",
        "city": "Закаменск",
        "lat": "50.372648",
        "lon": "103.286737",
        "timezone_sign": "plus",
        "timezone_value": "5",
        "population": "11249"
    },
    {
        "oblast": "Красноярский край",
        "region": "Рыбинский район",
        "city": "Заозёрный",
        "lat": "55.962402",
        "lon": "94.70996",
        "timezone_sign": "plus",
        "timezone_value": "4",
        "population": "10286"
    },
    {
        "oblast": "Мурманская область",
        "region": "Печенгский район",
        "city": "Заполярный",
        "lat": "69.426167",
        "lon": "30.820506",
        "timezone_sign": "plus",
        "timezone_value": "0",
        "population": "14902"
    },
    {
        "oblast": "Московская область",
        "region": "Зарайский район",
        "city": "Зарайск",
        "lat": "54.756973",
        "lon": "38.874845",
        "timezone_sign": "plus",
        "timezone_value": "0",
        "population": "22772"
    },
    {
        "oblast": "Свердловская область",
        "region": "Городской округ Заречный",
        "city": "Заречный",
        "lat": "56.810201",
        "lon": "61.337918",
        "timezone_sign": "plus",
        "timezone_value": "5",
        "population": "27898"
    },
    {
        "oblast": "Пензенская область",
        "region": "Городской округ Заречный (ЗАТО)",
        "city": "Заречный",
        "lat": "53.180731",
        "lon": "45.171158",
        "timezone_sign": "plus",
        "timezone_value": "0",
        "population": "65156"
    },
    {
        "oblast": "Алтайский край",
        "region": "Городской округ Заринск",
        "city": "Заринск",
        "lat": "53.70895",
        "lon": "84.967278",
        "timezone_sign": "plus",
        "timezone_value": "4",
        "population": "46254"
    },
    {
        "oblast": "Республика Марий Эл",
        "region": "Звениговский район",
        "city": "Звенигово",
        "lat": "55.973849",
        "lon": "48.017063",
        "timezone_sign": "plus",
        "timezone_value": "0",
        "population": "10904"
    },
    {
        "oblast": "Московская область",
        "region": "Городской округ Звенигород",
        "city": "Звенигород",
        "lat": "55.730052",
        "lon": "36.854982",
        "timezone_sign": "plus",
        "timezone_value": "0",
        "population": "22317"
    },
    {
        "oblast": "Ростовская область",
        "region": "Городской округ Зверево",
        "city": "Зверево",
        "lat": "48.019161",
        "lon": "40.120972",
        "timezone_sign": "plus",
        "timezone_value": "0",
        "population": "19456"
    },
    {
        "oblast": "Красноярский край",
        "region": "Городской округ ЗАТО Зеленогорск",
        "city": "Зеленогорск",
        "lat": "56.106114",
        "lon": "94.58131",
        "timezone_sign": "plus",
        "timezone_value": "4",
        "population": "61915"
    },
    {
        "oblast": "Санкт-Петербург",
        "region": "Курортный район",
        "city": "Зеленогорск",
        "lat": "60.196986",
        "lon": "29.705876",
        "timezone_sign": "plus",
        "timezone_value": "0",
        "population": "15322"
    },
    {
        "oblast": "Калининградская область",
        "region": "Зеленоградский район",
        "city": "Зеленоградск",
        "lat": "54.95893",
        "lon": "20.47668",
        "timezone_sign": "minus",
        "timezone_value": "1",
        "population": "15946"
    },
    {
        "oblast": "Республика Татарстан",
        "region": "Зеленодольский район",
        "city": "Зеленодольск",
        "lat": "55.845393",
        "lon": "48.538848",
        "timezone_sign": "minus",
        "timezone_value": "0",
        "population": "99743"
    },
    {
        "oblast": "Ставропольский край",
        "region": "Советский район",
        "city": "Зеленокумск",
        "lat": "44.403288",
        "lon": "43.884148",
        "timezone_sign": "minus",
        "timezone_value": "0",
        "population": "34113"
    },
    {
        "oblast": "Ростовская область",
        "region": "Зерноградский район",
        "city": "Зерноград",
        "lat": "46.853531",
        "lon": "40.310371",
        "timezone_sign": "minus",
        "timezone_value": "0",
        "population": "24886"
    },
    {
        "oblast": "Амурская область",
        "region": "Городской округ Зея",
        "city": "Зея",
        "lat": "53.73986",
        "lon": "127.261978",
        "timezone_sign": "plus",
        "timezone_value": "6",
        "population": "23270"
    },
    {
        "oblast": "Иркутская область",
        "region": "Зиминский городской округ",
        "city": "Зима",
        "lat": "53.922371",
        "lon": "102.048362",
        "timezone_sign": "plus",
        "timezone_value": "5",
        "population": "30515"
    },
    {
        "oblast": "Челябинская область",
        "region": "Златоустовский городской округ",
        "city": "Златоуст",
        "lat": "55.177067",
        "lon": "59.675815",
        "timezone_sign": "plus",
        "timezone_value": "2",
        "population": "165395"
    },
    {
        "oblast": "Алтайский край",
        "region": "Змеиногорский район",
        "city": "Змеиногорск",
        "lat": "51.158371",
        "lon": "82.189704",
        "timezone_sign": "plus",
        "timezone_value": "4",
        "population": "10533"
    },
    {
        "oblast": "Астраханская область",
        "region": "Городской округ Знаменск",
        "city": "Знаменск",
        "lat": "48.586586",
        "lon": "45.736851",
        "timezone_sign": "plus",
        "timezone_value": "1",
        "population": "26934"
    },
    {
        "oblast": "Кировская область",
        "region": "Зуевский район",
        "city": "Зуевка",
        "lat": "58.403938",
        "lon": "51.132301",
        "timezone_sign": "plus",
        "timezone_value": "1",
        "population": "10447"
    },
    {
        "oblast": "Ивановская область",
        "region": "Городской округ Иваново",
        "city": "Иваново",
        "lat": "56.992409",
        "lon": "40.967789",
        "timezone_sign": "plus",
        "timezone_value": "0",
        "population": "404598"
    },
    {
        "oblast": "Московская область",
        "region": "Городской округ Ивантеевка",
        "city": "Ивантеевка",
        "lat": "55.97",
        "lon": "37.917574",
        "timezone_sign": "plus",
        "timezone_value": "0",
        "population": "81254"
    },
    {
        "oblast": "Свердловская область",
        "region": "Ивдельский городской округ",
        "city": "Ивдель",
        "lat": "60.696831",
        "lon": "60.426681",
        "timezone_sign": "plus",
        "timezone_value": "2",
        "population": "15423"
    },
    {
        "oblast": "Удмуртская Республика",
        "region": "Городской округ Ижевск",
        "city": "Ижевск",
        "lat": "56.842609",
        "lon": "53.224449",
        "timezone_sign": "plus",
        "timezone_value": "1",
        "population": "648146"
    },
    {
        "oblast": "Республика Дагестан",
        "region": "Городской округ Избербаш",
        "city": "Избербаш",
        "lat": "42.5667",
        "lon": "47.87331",
        "timezone_sign": "plus",
        "timezone_value": "0",
        "population": "60453"
    },
    {
        "oblast": "Ставропольский край",
        "region": "Изобильненский район",
        "city": "Изобильный",
        "lat": "45.373009",
        "lon": "41.710281",
        "timezone_sign": "plus",
        "timezone_value": "0",
        "population": "37841"
    },
    {
        "oblast": "Красноярский край",
        "region": "Иланский район",
        "city": "Иланский",
        "lat": "56.24361",
        "lon": "96.067182",
        "timezone_sign": "plus",
        "timezone_value": "4",
        "population": "14967"
    },
    {
        "oblast": "Ульяновская область",
        "region": "Инзенский район",
        "city": "Инза",
        "lat": "53.85791",
        "lon": "46.36103",
        "timezone_sign": "plus",
        "timezone_value": "1",
        "population": "17714"
    },
    {
        "oblast": "Республика Крым",
        "region": "Севастополь",
        "city": "Инкерман",
        "lat": "44.612126",
        "lon": "33.612208",
        "timezone_sign": "plus",
        "timezone_value": "0",
        "population": "10178"
    },
    {
        "oblast": "Республика Коми",
        "region": "Городской округ Инта",
        "city": "Инта",
        "lat": "66.036849",
        "lon": "60.115358",
        "timezone_sign": "plus",
        "timezone_value": "0",
        "population": "24878"
    },
    {
        "oblast": "Ставропольский край",
        "region": "Ипатовский район",
        "city": "Ипатово",
        "lat": "45.718218",
        "lon": "42.897034",
        "timezone_sign": "plus",
        "timezone_value": "0",
        "population": "23214"
    },
    {
        "oblast": "Свердловская область",
        "region": "Городской округ Ирбит",
        "city": "Ирбит",
        "lat": "57.683819",
        "lon": "63.057664",
        "timezone_sign": "plus",
        "timezone_value": "2",
        "population": "36528"
    },
    {
        "oblast": "Иркутская область",
        "region": "Городской округ Иркутск",
        "city": "Иркутск",
        "lat": "52.287538",
        "lon": "104.278343",
        "timezone_sign": "plus",
        "timezone_value": "5",
        "population": "623562"
    },
    {
        "oblast": "Омская область",
        "region": "Исилькульский район",
        "city": "Исилькуль",
        "lat": "54.909577",
        "lon": "71.271318",
        "timezone_sign": "plus",
        "timezone_value": "3",
        "population": "23151"
    },
    {
        "oblast": "Новосибирская область",
        "region": "Городской округ Искитим",
        "city": "Искитим",
        "lat": "54.640209",
        "lon": "83.306343",
        "timezone_sign": "plus",
        "timezone_value": "4",
        "population": "57032"
    },
    {
        "oblast": "Московская область",
        "region": "Истринский район",
        "city": "Истра",
        "lat": "55.912041",
        "lon": "36.860451",
        "timezone_sign": "plus",
        "timezone_value": "0",
        "population": "33558"
    },
    {
        "oblast": "Тюменская область",
        "region": "Городской округ Ишим",
        "city": "Ишим",
        "lat": "56.11058",
        "lon": "69.479585",
        "timezone_sign": "plus",
        "timezone_value": "2",
        "population": "64653"
    },
    {
        "oblast": "Республика Башкортостан",
        "region": "Ишимбайский район",
        "city": "Ишимбай",
        "lat": "53.454621",
        "lon": "56.043923",
        "timezone_sign": "plus",
        "timezone_value": "2",
        "population": "64307"
    },
    {
        "oblast": "Республика Марий Эл",
        "region": "Городской округ Йошкар-Ола",
        "city": "Йошкар-Ола",
        "lat": "56.637501",
        "lon": "47.891498",
        "timezone_sign": "plus",
        "timezone_value": "0",
        "population": "274715"
    },
    {
        "oblast": "Республика Татарстан",
        "region": "Городской округ Казань",
        "city": "Казань",
        "lat": "55.724381",
        "lon": "49.23407",
        "population": "1257391",
        "_edit_lock": "1597148511:1",
        "_edit_last": "1"
    },
    {
        "oblast": "Воронежская область",
        "region": "Калачеевский район",
        "city": "Калач",
        "lat": "50.423253",
        "lon": "41.027011",
        "timezone_sign": "plus",
        "timezone_value": "0",
        "population": "18834"
    },
    {
        "oblast": "Волгоградская область",
        "region": "Калачёвский район",
        "city": "Калач-на-Дону",
        "lat": "48.690392",
        "lon": "43.523251",
        "timezone_sign": "plus",
        "timezone_value": "1",
        "population": "23813"
    },
    {
        "oblast": "Омская область",
        "region": "Калачинский район",
        "city": "Калачинск",
        "lat": "55.052189",
        "lon": "74.584953",
        "timezone_sign": "plus",
        "timezone_value": "3",
        "population": "22781"
    },
    {
        "oblast": "Калининградская область",
        "region": "Калининградский район",
        "city": "Калининград",
        "lat": "54.70649",
        "lon": "20.51095",
        "timezone_sign": "minus",
        "timezone_value": "1",
        "population": "489359"
    },
    {
        "oblast": "Саратовская область",
        "region": "Калининский район",
        "city": "Калининск",
        "lat": "51.503841",
        "lon": "44.487202",
        "timezone_sign": "plus",
        "timezone_value": "1",
        "population": "15821"
    },
    {
        "oblast": "Кемеровская область",
        "region": "Калтанский городской округ",
        "city": "Калтан",
        "lat": "53.52232",
        "lon": "87.278084",
        "timezone_sign": "plus",
        "timezone_value": "4",
        "population": "20610"
    },
    {
        "oblast": "Калужская область",
        "region": "Городской округ Калуга",
        "city": "Калуга",
        "lat": "54.514679",
        "lon": "36.271419",
        "timezone_sign": "plus",
        "timezone_value": "0",
        "population": "332039"
    },
    {
        "oblast": "Тверская область",
        "region": "Калязинский район",
        "city": "Калязин",
        "lat": "57.240412",
        "lon": "37.855078",
        "timezone_sign": "plus",
        "timezone_value": "0",
        "population": "12770"
    },
    {
        "oblast": "Удмуртская Республика",
        "region": "Камбарский район",
        "city": "Камбарка",
        "lat": "56.264612",
        "lon": "54.198511",
        "timezone_sign": "plus",
        "timezone_value": "1",
        "population": "10477"
    },
    {
        "oblast": "Пензенская область",
        "region": "Каменский район",
        "city": "Каменка",
        "lat": "53.187883",
        "lon": "44.051459",
        "timezone_sign": "plus",
        "timezone_value": "0",
        "population": "35929"
    },
    {
        "oblast": "Свердловская область",
        "region": "Городской округ Каменск-Уральский",
        "city": "Каменск-Уральский",
        "lat": "56.414897",
        "lon": "61.918905",
        "timezone_sign": "plus",
        "timezone_value": "2",
        "population": "166086"
    },
    {
        "oblast": "Ростовская область",
        "region": "Городской округ Каменск-Шахтинский",
        "city": "Каменск-Шахтинский",
        "lat": "48.319328",
        "lon": "40.263828",
        "timezone_sign": "plus",
        "timezone_value": "0",
        "population": "89657"
    },
    {
        "oblast": "Алтайский край",
        "region": "Каменский район",
        "city": "Камень-на-Оби",
        "lat": "53.782699",
        "lon": "81.343079",
        "timezone_sign": "plus",
        "timezone_value": "4",
        "population": "40795"
    },
    {
        "oblast": "Владимирская область",
        "region": "Камешковский район",
        "city": "Камешково",
        "lat": "56.346512",
        "lon": "40.99313",
        "timezone_sign": "plus",
        "timezone_value": "0",
        "population": "12496"
    },
    {
        "oblast": "Астраханская область",
        "region": "Камызякский район",
        "city": "Камызяк",
        "lat": "46.110584",
        "lon": "48.073289",
        "timezone_sign": "plus",
        "timezone_value": "1",
        "population": "15984"
    },
    {
        "oblast": "Волгоградская область",
        "region": "Городской округ Камышин",
        "city": "Камышин",
        "lat": "50.084223",
        "lon": "45.376802",
        "timezone_sign": "plus",
        "timezone_value": "1",
        "population": "110318"
    },
    {
        "oblast": "Свердловская область",
        "region": "Камышловский городской округ",
        "city": "Камышлов",
        "lat": "56.84938",
        "lon": "62.720173",
        "timezone_sign": "plus",
        "timezone_value": "2",
        "population": "25843"
    },
    {
        "oblast": "Чувашская Республика",
        "region": "Городской округ Канаш",
        "city": "Канаш",
        "lat": "55.505409",
        "lon": "47.499531",
        "timezone_sign": "plus",
        "timezone_value": "0",
        "population": "45501"
    },
    {
        "oblast": "Мурманская область",
        "region": "Кандалакшский район",
        "city": "Кандалакша",
        "lat": "67.158028",
        "lon": "32.420478",
        "timezone_sign": "plus",
        "timezone_value": "0",
        "population": "30575"
    },
    {
        "oblast": "Красноярский край",
        "region": "Городской округ Канск",
        "city": "Канск",
        "lat": "56.206665",
        "lon": "95.704806",
        "timezone_sign": "plus",
        "timezone_value": "4",
        "population": "89111"
    },
    {
        "oblast": "Владимирская область",
        "region": "Александровский район",
        "city": "Карабаново",
        "lat": "56.314642",
        "lon": "38.704913",
        "timezone_sign": "plus",
        "timezone_value": "0",
        "population": "14786"
    },
    {
        "oblast": "Челябинская область",
        "region": "Карабашский городской округ",
        "city": "Карабаш",
        "lat": "55.484374",
        "lon": "60.220973",
        "timezone_sign": "plus",
        "timezone_value": "2",
        "population": "10854"
    },
    {
        "oblast": "Республика Ингушетия",
        "region": "Городской округ Карабулак",
        "city": "Карабулак",
        "lat": "43.305931",
        "lon": "44.905781",
        "timezone_sign": "plus",
        "timezone_value": "0",
        "population": "42724"
    },
    {
        "oblast": "Новосибирская область",
        "region": "Карасукский район",
        "city": "Карасук",
        "lat": "53.734949",
        "lon": "78.038843",
        "timezone_sign": "plus",
        "timezone_value": "4",
        "population": "27196"
    },
    {
        "oblast": "Карачаево-Черкесская Республика",
        "region": "Карачаевский район",
        "city": "Карачаевск",
        "lat": "43.773167",
        "lon": "41.914313",
        "timezone_sign": "plus",
        "timezone_value": "0",
        "population": "20828"
    },
    {
        "oblast": "Брянская область",
        "region": "Карачевский район",
        "city": "Карачев",
        "lat": "53.121594",
        "lon": "34.982796",
        "timezone_sign": "plus",
        "timezone_value": "0",
        "population": "17466"
    },
    {
        "oblast": "Архангельская область",
        "region": "Каргопольский район",
        "city": "Каргополь",
        "lat": "61.5054",
        "lon": "38.947214",
        "timezone_sign": "plus",
        "timezone_value": "0",
        "population": "10055"
    },
    {
        "oblast": "Свердловская область",
        "region": "Городской округ Карпинск",
        "city": "Карпинск",
        "lat": "59.771993",
        "lon": "60.010608",
        "timezone_sign": "plus",
        "timezone_value": "2",
        "population": "25937"
    },
    {
        "oblast": "Челябинская область",
        "region": "Карталинский район",
        "city": "Карталы",
        "lat": "53.055375",
        "lon": "60.644782",
        "timezone_sign": "plus",
        "timezone_value": "2",
        "population": "28442"
    },
    {
        "oblast": "Рязанская область",
        "region": "Городской округ Касимов",
        "city": "Касимов",
        "lat": "54.935958",
        "lon": "41.39652",
        "timezone_sign": "plus",
        "timezone_value": "0",
        "population": "29700"
    },
    {
        "oblast": "Челябинская область",
        "region": "Каслинский район",
        "city": "Касли",
        "lat": "55.890565",
        "lon": "60.748837",
        "timezone_sign": "plus",
        "timezone_value": "2",
        "population": "15853"
    },
    {
        "oblast": "Республика Дагестан",
        "region": "Городской округ Каспийск",
        "city": "Каспийск",
        "lat": "42.882751",
        "lon": "47.638249",
        "population": "1123988",
        "_edit_lock": "1597174202:1",
        "_edit_last": "1"
    },
    {
        "oblast": "Челябинская область",
        "region": "Катав-Ивановский район",
        "city": "Катав-Ивановск",
        "lat": "54.75211",
        "lon": "58.198389",
        "timezone_sign": "plus",
        "timezone_value": "2",
        "population": "15659"
    },
    {
        "oblast": "Курганская область",
        "region": "Катайский район",
        "city": "Катайск",
        "lat": "56.290764",
        "lon": "62.580056",
        "timezone_sign": "plus",
        "timezone_value": "2",
        "population": "12585"
    },
    {
        "oblast": "Свердловская область",
        "region": "Качканарский городской округ",
        "city": "Качканар",
        "lat": "58.698349",
        "lon": "59.489391",
        "timezone_sign": "plus",
        "timezone_value": "2",
        "population": "38092"
    },
    {
        "oblast": "Тверская область",
        "region": "Кашинский район",
        "city": "Кашин",
        "lat": "57.358381",
        "lon": "37.613449",
        "timezone_sign": "plus",
        "timezone_value": "0",
        "population": "14094"
    },
    {
        "oblast": "Московская область",
        "region": "Каширский район",
        "city": "Кашира",
        "lat": "54.833333",
        "lon": "38.15",
        "timezone_sign": "plus",
        "timezone_value": "0",
        "population": "47392"
    },
    {
        "oblast": "Республика Карелия",
        "region": "Кемский район",
        "city": "Кемь",
        "lat": "64.95436",
        "lon": "34.594948",
        "timezone_sign": "plus",
        "timezone_value": "0",
        "population": "10861"
    },
    {
        "oblast": "Республика Крым",
        "region": "Городской округ Керчь",
        "city": "Керчь",
        "lat": "45.356745",
        "lon": "36.467028",
        "timezone_sign": "plus",
        "timezone_value": "0",
        "population": "151025"
    },
    {
        "oblast": "Пермский край",
        "region": "Кизеловский район",
        "city": "Кизел",
        "lat": "59.049425",
        "lon": "57.653875",
        "timezone_sign": "plus",
        "timezone_value": "2",
        "population": "14162"
    },
    {
        "oblast": "Республика Дагестан",
        "region": "Городской округ Кизилюрт",
        "city": "Кизилюрт",
        "lat": "43.20182",
        "lon": "46.87756",
        "timezone_sign": "plus",
        "timezone_value": "0",
        "population": "37752"
    },
    {
        "oblast": "Республика Дагестан",
        "region": "Городской округ Кизляр",
        "city": "Кизляр",
        "lat": "43.84465",
        "lon": "46.718689",
        "timezone_sign": "plus",
        "timezone_value": "0",
        "population": "49412"
    },
    {
        "oblast": "Тульская область",
        "region": "Кимовский район",
        "city": "Кимовск",
        "lat": "53.969771",
        "lon": "38.538058",
        "timezone_sign": "plus",
        "timezone_value": "0",
        "population": "25951"
    },
    {
        "oblast": "Тверская область",
        "region": "Городской округ Кимры",
        "city": "Кимры",
        "lat": "56.873338",
        "lon": "37.355678",
        "timezone_sign": "plus",
        "timezone_value": "0",
        "population": "44743"
    },
    {
        "oblast": "Ленинградская область",
        "region": "Кингисеппский район",
        "city": "Кингисепп",
        "lat": "59.375851",
        "lon": "28.609079",
        "timezone_sign": "plus",
        "timezone_value": "0",
        "population": "45216"
    },
    {
        "oblast": "Самарская область",
        "region": "Городской округ Кинель",
        "city": "Кинель",
        "lat": "53.221699",
        "lon": "50.632309",
        "timezone_sign": "plus",
        "timezone_value": "1",
        "population": "35321"
    },
    {
        "oblast": "Ивановская область",
        "region": "Городской округ Кинешма",
        "city": "Кинешма",
        "lat": "57.449795",
        "lon": "42.132423",
        "timezone_sign": "plus",
        "timezone_value": "0",
        "population": "80950"
    },
    {
        "oblast": "Тульская область",
        "region": "Киреевский район",
        "city": "Киреевск",
        "lat": "53.932023",
        "lon": "37.922092",
        "timezone_sign": "plus",
        "timezone_value": "0",
        "population": "28020"
    },
    {
        "oblast": "Иркутская область",
        "region": "Киренский район",
        "city": "Киренск",
        "lat": "57.775747",
        "lon": "108.110861",
        "timezone_sign": "plus",
        "timezone_value": "5",
        "population": "11048"
    },
    {
        "oblast": "Владимирская область",
        "region": "Киржачский район",
        "city": "Киржач",
        "lat": "56.161694",
        "lon": "38.872025",
        "timezone_sign": "plus",
        "timezone_value": "0",
        "population": "26676"
    },
    {
        "oblast": "Ленинградская область",
        "region": "Киришский район",
        "city": "Кириши",
        "lat": "59.445619",
        "lon": "32.021111",
        "timezone_sign": "plus",
        "timezone_value": "0",
        "population": "50525"
    },
    {
        "oblast": "Кировская область",
        "region": "Городской округ Киров",
        "city": "Киров",
        "lat": "58.596081",
        "lon": "49.662659",
        "timezone_sign": "plus",
        "timezone_value": "1",
        "population": "518348"
    },
    {
        "oblast": "Калужская область",
        "region": "Кировский район",
        "city": "Киров",
        "lat": "54.07926",
        "lon": "34.308815",
        "timezone_sign": "plus",
        "timezone_value": "0",
        "population": "29946"
    },
    {
        "oblast": "Свердловская область",
        "region": "Кировградский городской округ",
        "city": "Кировград",
        "lat": "57.429915",
        "lon": "60.062456",
        "timezone_sign": "plus",
        "timezone_value": "2",
        "population": "18738"
    },
    {
        "oblast": "Кировская область",
        "region": "Городской округ Кирово-Чепецк",
        "city": "Кирово-Чепецк",
        "lat": "58.545653",
        "lon": "50.023234",
        "timezone_sign": "plus",
        "timezone_value": "1",
        "population": "72071"
    },
    {
        "oblast": "Мурманская область",
        "region": "Городской округ Кировск",
        "city": "Кировск",
        "lat": "67.615114",
        "lon": "33.663674",
        "timezone_sign": "plus",
        "timezone_value": "0",
        "population": "26206"
    },
    {
        "oblast": "Ленинградская область",
        "region": "Кировский район",
        "city": "Кировск",
        "lat": "59.875095",
        "lon": "30.985203",
        "timezone_sign": "plus",
        "timezone_value": "0",
        "population": "26887"
    },
    {
        "oblast": "Тамбовская область",
        "region": "Городской округ Кирсанов",
        "city": "Кирсанов",
        "lat": "52.65049",
        "lon": "42.72858",
        "timezone_sign": "plus",
        "timezone_value": "0",
        "population": "16409"
    },
    {
        "oblast": "Кемеровская область",
        "region": "Киселёвский городской округ",
        "city": "Киселёвск",
        "lat": "54.008115",
        "lon": "86.636338",
        "timezone_sign": "plus",
        "timezone_value": "4",
        "population": "88192"
    },
    {
        "oblast": "Ставропольский край",
        "region": "Городской округ Город-курорт Кисловодск",
        "city": "Кисловодск",
        "lat": "43.923",
        "lon": "42.724399",
        "timezone_sign": "plus",
        "timezone_value": "0",
        "population": "128779"
    },
    {
        "oblast": "Московская область",
        "region": "Подольский район",
        "city": "Климовск",
        "lat": "55.37501",
        "lon": "37.538979",
        "timezone_sign": "plus",
        "timezone_value": "0",
        "population": "56239"
    },
    {
        "oblast": "Московская область",
        "region": "Клинский район",
        "city": "Клин",
        "lat": "56.332898",
        "lon": "36.727966",
        "timezone_sign": "plus",
        "timezone_value": "0",
        "population": "79715"
    },
    {
        "oblast": "Брянская область",
        "region": "Городской округ Клинцы",
        "city": "Клинцы",
        "lat": "52.752816",
        "lon": "32.233861",
        "timezone_sign": "plus",
        "timezone_value": "0",
        "population": "63050"
    },
    {
        "oblast": "Мурманская область",
        "region": "Ковдорский район",
        "city": "Ковдор",
        "lat": "67.566195",
        "lon": "30.47416",
        "timezone_sign": "plus",
        "timezone_value": "0",
        "population": "16435"
    },
    {
        "oblast": "Владимирская область",
        "region": "Городской округ Ковров",
        "city": "Ковров",
        "lat": "56.363628",
        "lon": "41.31122",
        "timezone_sign": "plus",
        "timezone_value": "0",
        "population": "137594"
    },
    {
        "oblast": "Республика Мордовия",
        "region": "Ковылкинский район",
        "city": "Ковылкино",
        "lat": "54.039201",
        "lon": "43.919056",
        "timezone_sign": "plus",
        "timezone_value": "0",
        "population": "20072"
    },
    {
        "oblast": "Ханты-Мансийский автономный округ",
        "region": "Городской округ Когалым",
        "city": "Когалым",
        "lat": "62.263893",
        "lon": "74.482904",
        "timezone_sign": "plus",
        "timezone_value": "2",
        "population": "66720"
    },
    {
        "oblast": "Красноярский край",
        "region": "Кежемский район",
        "city": "Кодинск",
        "lat": "58.60009",
        "lon": "99.183462",
        "timezone_sign": "plus",
        "timezone_value": "4",
        "population": "15911"
    },
    {
        "oblast": "Калужская область",
        "region": "Козельский район",
        "city": "Козельск",
        "lat": "54.031609",
        "lon": "35.790359",
        "timezone_sign": "plus",
        "timezone_value": "0",
        "population": "16427"
    },